PLACE,LATITUDE,LONGITUDE
Chilkur Balaji Temple,17.3586,78.2988
Viswanath Theatre,17.4969,78.3964
Prasads Multiplex,17.4130,78.4657
PVR Cinemas Atrium,17.4460,78.3637
Secundrabad Railway Station,17.4337,78.5016
Ashta Lakshmi Temple,17.3650264,78.5449155
Sanghi Temple,17.2668128,78.6737779
