PLACE,LATITUDE,LONGITUDE
Chilkur Balaji Temple,17.3586,78.2988
Viswanath Theatre,17.4969,78.3964
Prasads Multiplex,17.4130,78.4657
PVR Cinemas Atrium,17.4460,78.3637
Secundrabad Railway Station,17.4337,78.5016
DivyaSree Trinity,17.4436,78.3747
